City_ID,City,Country,Lat,Lng,Max Temp,Humidity,Cloudiness,Wind Speed,Current Description
0,Kavieng,PG,-2.5744,150.7967,83.44,73,60,12.55,broken clouds
1,Provideniya,RU,64.3833,-173.3,48.36,81,100,13.42,overcast clouds
2,Himare,AL,40.1017,19.7447,74.08,69,0,3.02,clear sky
3,Moose Factory,CA,51.2585,-80.6094,69.8,64,0,8.05,clear sky
4,Kununurra,AU,-15.7667,128.7333,67.98,94,2,0.0,clear sky
5,Georgetown,MY,5.4112,100.3354,78.73,95,20,2.3,few clouds
6,East London,ZA,-33.0153,27.9116,63.0,87,21,10.8,few clouds
7,Vizinga,RU,61.0749,50.1031,40.3,98,100,7.38,overcast clouds
8,Cape Town,ZA,-33.9258,18.4232,58.91,86,0,12.66,clear sky
9,Saint George,US,37.1041,-113.5841,107.44,16,0,10.36,clear sky
10,Port Elizabeth,ZA,-33.918,25.5701,57.31,98,0,5.75,clear sky
11,Atuona,PF,-9.8,-139.0333,76.8,81,29,28.16,light rain
12,Bluff,NZ,-46.6,168.3333,45.81,69,91,2.51,overcast clouds
13,Mar Del Plata,AR,-38.0023,-57.5575,63.95,75,19,15.01,few clouds
14,Inhambane,MZ,-23.865,35.3833,70.52,63,100,7.49,overcast clouds
15,Mount Gambier,AU,-37.8333,140.7667,55.31,94,100,16.11,overcast clouds
16,Soldotna,US,60.4878,-151.0583,56.07,72,100,4.61,overcast clouds
17,Punta Arenas,CL,-53.15,-70.9167,39.31,65,100,11.5,overcast clouds
18,San Patricio,US,28.017,-97.5169,91.35,45,99,4.68,overcast clouds
19,Myre,NO,69.1036,15.9492,46.35,69,98,4.54,overcast clouds
20,Broome,US,42.2506,-75.833,69.85,87,100,3.44,overcast clouds
21,Murakami,JP,38.2333,139.4833,76.89,89,100,2.28,moderate rain
22,Dikson,RU,73.5069,80.5464,37.65,87,100,19.26,light rain
23,Albany,US,42.6001,-73.9662,69.64,85,97,1.32,overcast clouds
24,Busselton,AU,-33.65,115.3333,47.44,84,83,5.46,broken clouds
25,Kungurtug,RU,50.5994,97.5228,51.03,45,1,3.2,clear sky
26,Kahului,US,20.8947,-156.47,89.62,64,20,25.32,few clouds
27,Brandon,US,27.9378,-82.2859,89.89,78,40,6.91,scattered clouds
28,Severo-Kurilsk,RU,50.6789,156.125,57.11,92,100,17.74,light rain
29,Fortuna,US,40.5982,-124.1573,75.65,45,89,6.96,overcast clouds
30,Itoman,JP,26.1247,127.6694,80.62,78,40,16.11,scattered clouds
31,Butaritari,KI,3.0707,172.7902,81.72,72,100,14.7,overcast clouds
32,Nemuro,JP,43.3236,145.575,64.54,84,68,10.78,broken clouds
33,Hobart,AU,-42.8794,147.3294,49.26,93,75,9.22,light rain
34,Kampot,KH,10.6167,104.1833,75.25,94,100,8.59,overcast clouds
35,Namatanai,PG,-3.6667,152.4333,82.17,74,30,5.82,scattered clouds
36,San Quintin,MX,30.4833,-115.95,82.83,63,5,11.48,clear sky
37,Port Augusta,AU,-32.5,137.7667,51.3,90,60,9.17,broken clouds
38,Jacareacanga,BR,-6.2222,-57.7528,88.21,40,99,0.92,overcast clouds
39,Ileza,RU,61.0533,43.9002,38.16,94,100,8.59,overcast clouds
40,Rikitea,PF,-23.1203,-134.9692,72.77,74,6,23.94,clear sky
41,Vinh,VN,18.6667,105.6667,78.24,91,100,8.81,heavy intensity rain
42,Soyo,AO,-6.1349,12.3689,73.8,90,22,10.74,few clouds
43,Qasigiannguit,GL,68.8193,-51.1922,39.45,90,96,4.36,overcast clouds
44,Muskegon,US,43.3,-86.1334,80.94,60,40,8.05,scattered clouds
45,Torbay,CA,47.6666,-52.7314,54.37,78,75,9.22,broken clouds
46,Luganville,VU,-15.5333,167.1667,81.99,74,9,4.94,clear sky
47,Pevek,RU,69.7008,170.3133,42.22,65,7,13.51,clear sky
48,Buckingham,GB,51.9997,-0.9878,61.66,66,90,3.0,overcast clouds
49,Narsaq,GL,60.9167,-46.05,48.42,85,33,2.8,scattered clouds
50,Lagoa,PT,39.05,-27.9833,74.7,89,99,19.8,light rain
51,Jamestown,US,42.097,-79.2353,68.52,69,100,8.05,overcast clouds
52,Ribeira Grande,PT,38.5167,-28.7,75.99,91,100,18.3,light rain
53,New Norfolk,AU,-42.7826,147.0587,48.92,81,89,1.45,overcast clouds
54,Bredasdorp,ZA,-34.5322,20.0403,48.25,94,5,0.54,clear sky
55,Castro,BR,-24.7911,-50.0119,57.9,94,14,3.27,few clouds
56,Lompoc,US,34.6391,-120.4579,90.84,53,0,16.11,clear sky
57,Muhos,FI,64.808,25.9931,40.78,80,62,1.81,broken clouds
58,Aliwal North,ZA,-30.6937,26.7114,53.28,19,0,3.2,clear sky
59,Hilo,US,19.7297,-155.09,88.29,72,75,9.22,broken clouds
60,Luderitz,NA,-26.6481,15.1594,58.28,77,0,9.46,clear sky
61,Guerrero Negro,MX,27.9769,-114.0611,83.97,60,89,24.83,overcast clouds
62,Mirnyy,RU,62.5353,113.9611,37.24,100,22,8.99,few clouds
63,Hithadhoo,MV,-0.6,73.0833,81.84,71,99,14.9,overcast clouds
64,Ushuaia,AR,-54.8,-68.3,37.06,70,40,3.44,scattered clouds
65,Puerto Ayora,EC,-0.7393,-90.3518,68.56,94,100,8.01,overcast clouds
66,Sao Filipe,CV,14.8961,-24.4956,78.71,88,74,15.61,broken clouds
67,San Andres,CO,12.5847,-81.7006,84.22,84,40,5.75,light intensity drizzle
68,Savannakhet,LA,16.566,104.751,72.84,95,100,4.12,overcast clouds
69,Meulaboh,ID,4.1363,96.1285,74.03,89,100,5.75,overcast clouds
70,Norman Wells,CA,65.282,-126.8329,57.24,47,75,11.5,broken clouds
71,Santa Rosa,PH,14.3122,121.1114,82.38,88,48,3.38,scattered clouds
72,Port Alfred,ZA,-33.5906,26.891,61.3,89,2,10.87,clear sky
73,Odweyne,SO,9.4092,45.064,75.94,52,86,17.02,overcast clouds
74,Mataura,NZ,-46.1927,168.8643,45.48,92,95,1.92,overcast clouds
75,Sembe,CG,1.6481,14.5806,71.98,96,53,2.84,broken clouds
76,Talnakh,RU,69.4865,88.3972,33.21,82,10,2.44,clear sky
77,Stokmarknes,NO,68.5646,14.9108,40.98,87,20,5.75,few clouds
78,Coihaique,CL,-45.5752,-72.0662,38.01,97,97,2.35,overcast clouds
79,Hermanus,ZA,-34.4187,19.2345,51.8,88,3,8.21,clear sky
80,Kerema,PG,-7.9631,145.7785,79.34,85,49,4.94,scattered clouds
81,Jadu,LY,31.953,12.0261,79.7,40,5,7.14,clear sky
82,Richards Bay,ZA,-28.783,32.0377,65.55,72,0,13.38,clear sky
83,Saint-Philippe,RE,-21.3585,55.7679,69.39,74,15,5.73,few clouds
84,Mvuma,ZW,-19.2792,30.5283,53.28,87,0,7.7,clear sky
85,Bethel,US,41.3712,-73.414,72.01,73,100,8.05,overcast clouds
86,San Cristobal,VE,7.7669,-72.225,82.58,68,40,5.7,scattered clouds
87,Port Hardy,CA,50.6996,-127.4199,62.78,67,75,9.22,light intensity shower rain
88,College Place,US,46.0493,-118.3883,93.38,26,100,1.01,overcast clouds
89,Baneh,IR,35.9975,45.8853,67.8,34,47,3.06,scattered clouds
90,Milford,US,41.2223,-73.0565,72.21,71,100,12.66,overcast clouds
91,Halifax,CA,44.6453,-63.5724,69.69,69,20,9.22,few clouds
92,Kloulklubed,PW,7.0419,134.2556,75.7,77,99,5.44,overcast clouds
93,Sinnamary,GF,5.3833,-52.95,80.17,81,73,11.16,broken clouds
94,Airai,TL,-8.9266,125.4092,58.28,46,100,2.35,overcast clouds
95,Kapaa,US,22.0752,-159.319,84.09,73,75,12.66,broken clouds
96,Clonakilty,IE,51.6231,-8.8706,58.21,93,76,12.62,broken clouds
97,Atar,MR,20.5169,-13.0499,98.38,17,5,7.52,clear sky
98,Lerwick,GB,60.1545,-1.1494,57.2,94,100,18.84,overcast clouds
99,Srednekolymsk,RU,67.45,153.6833,56.61,43,100,10.0,overcast clouds
100,Nome,US,64.5011,-165.4064,52.16,76,75,10.36,broken clouds
101,Lorengau,PG,-2.0226,147.2712,82.35,74,61,2.93,broken clouds
102,San Ramon,US,37.7799,-121.978,106.21,14,0,10.36,clear sky
103,Hammerfest,NO,70.6634,23.6821,46.85,93,75,13.8,broken clouds
104,Nikolskoye,RU,59.7035,30.7861,46.78,94,52,4.79,broken clouds
105,Avarua,CK,-21.2078,-159.775,78.85,73,40,18.41,scattered clouds
106,Thompson,CA,55.7435,-97.8558,71.76,35,75,9.22,broken clouds
107,Vrangel,RU,42.7297,133.0839,62.83,85,0,3.44,clear sky
108,Bull Savanna,JM,17.8868,-77.5902,80.94,74,53,2.42,broken clouds
109,Kavaratti,IN,10.5669,72.642,79.47,82,100,24.43,overcast clouds
110,Ziyang,CN,29.2497,117.8547,72.81,67,84,2.84,broken clouds
111,Vardo,NO,70.3705,31.1107,42.78,81,100,11.5,overcast clouds
112,Kamaishi,JP,39.2667,141.8833,71.38,83,99,9.6,overcast clouds
113,Kaitangata,NZ,-46.2817,169.8464,45.93,78,98,1.23,overcast clouds
114,Balikpapan,ID,-1.2675,116.8289,76.19,94,20,2.3,few clouds
115,Rudbar,AF,30.15,62.6,83.08,12,0,4.43,clear sky
116,Tuktoyaktuk,CA,69.4541,-133.0374,42.8,87,100,12.66,light intensity drizzle
117,Santa Maria,BR,-29.6842,-53.8069,63.75,72,1,3.65,clear sky
118,Caravelas,BR,-17.7125,-39.2481,69.33,71,100,7.92,overcast clouds
119,Belaya Gora,RU,68.5333,146.4167,53.19,50,100,13.82,overcast clouds
120,Harper,LR,4.375,-7.7169,75.04,88,19,5.82,few clouds
121,Pacific Grove,US,36.6177,-121.9166,92.88,70,0,5.75,clear sky
122,Beloha,MG,-25.1667,45.05,67.6,72,80,12.01,broken clouds
123,Vaini,TO,-21.2,-175.2,80.76,89,20,8.05,few clouds
124,Fatehpur,IN,25.9333,80.8,82.72,67,97,6.02,overcast clouds
125,Saint-Francois,FR,46.4154,3.9054,62.04,94,75,2.3,light rain
126,Otanche,CO,5.6567,-74.1825,77.04,76,45,2.33,scattered clouds
127,Nabire,ID,-3.3667,135.4833,77.0,86,100,2.53,overcast clouds
128,Mabaruma,GY,8.2,-59.7833,76.64,94,26,5.41,scattered clouds
129,Petropavlovsk-Kamchatskiy,RU,53.0452,158.6483,52.39,100,75,0.0,broken clouds
130,Ilulissat,GL,69.2167,-51.1,39.22,87,75,4.61,broken clouds
131,Yellowknife,CA,62.456,-114.3525,50.52,66,75,12.66,broken clouds
132,Kefamenanu,ID,-9.4467,124.4781,66.2,82,70,3.0,broken clouds
133,Batticaloa,LK,7.7102,81.6924,80.08,74,100,6.51,overcast clouds
134,Lebu,CL,-37.6167,-73.65,47.68,61,43,11.36,scattered clouds
135,Nanakuli,US,21.3906,-158.1547,87.75,51,75,10.36,broken clouds
136,Cidreira,BR,-30.1811,-50.2056,61.39,89,26,13.42,scattered clouds
137,Ketchikan,US,55.3422,-131.6461,61.27,72,100,6.91,overcast clouds
138,Codrington,AU,-38.2667,141.9667,55.42,95,100,18.28,light rain
139,Lima,PE,-12.0432,-77.0282,63.9,77,100,11.5,overcast clouds
140,Cabra,ES,37.4725,-4.4421,70.79,37,73,1.83,broken clouds
141,Matamoros,MX,25.5333,-103.25,82.51,54,75,0.0,broken clouds
142,Bonthe,SL,7.5264,-12.505,76.62,87,100,10.47,light rain
143,Cayenne,GF,4.9333,-52.3333,82.44,74,91,3.44,overcast clouds
144,Mandera,KE,3.9366,41.867,77.58,55,88,21.63,overcast clouds
145,Te Anau,NZ,-45.4167,167.7167,37.44,94,85,0.96,overcast clouds
146,Barrow,US,71.2906,-156.7887,48.22,66,0,8.05,clear sky
147,Iqaluit,CA,63.7506,-68.5145,42.53,86,75,14.97,broken clouds
148,Sao Jose Da Coroa Grande,BR,-8.8978,-35.1478,73.63,71,1,9.75,clear sky
149,Mayumba,GA,-3.432,10.6554,74.01,88,100,9.35,overcast clouds
150,Gravdal,NO,68.1214,13.5031,48.92,73,78,8.59,broken clouds
151,Mahibadhoo,MV,3.7833,72.9667,80.35,83,100,13.96,overcast clouds
152,Manuk Mangkaw,PH,4.8,119.85,82.17,72,99,0.89,overcast clouds
153,Ous,RU,60.9058,61.5186,40.98,94,95,3.74,overcast clouds
154,Borogontsy,RU,62.6683,131.1683,43.32,80,100,13.51,overcast clouds
155,Grants,US,35.1473,-107.8514,88.03,12,0,6.91,clear sky
156,Houma,US,29.5958,-90.7195,87.01,80,27,4.0,scattered clouds
157,Gabu,GW,12.2833,-14.2167,76.1,95,84,3.8,light rain
158,Lianran,CN,24.9227,102.485,55.94,90,33,3.15,scattered clouds
159,Krymsk,RU,44.9293,37.9912,48.67,70,0,2.51,clear sky
160,Klyuchi,RU,52.2667,79.1667,50.9,59,83,8.84,broken clouds
161,Nchelenge,ZM,-9.3451,28.734,75.15,33,0,9.53,clear sky
162,Bagdarin,RU,54.4333,113.6,36.21,86,62,1.81,broken clouds
163,Adre,TD,13.4667,22.2,73.94,72,100,3.78,overcast clouds
164,Bengkulu,ID,-3.8004,102.2655,73.4,89,100,2.93,overcast clouds
165,Zalalovo,HU,46.848,16.5875,66.97,84,82,4.07,broken clouds
166,Upernavik,GL,72.7868,-56.1549,37.83,81,98,5.08,overcast clouds
167,Mersing,MY,2.4312,103.8405,75.11,94,40,2.3,scattered clouds
168,Katsuura,JP,35.1333,140.3,78.51,85,47,14.27,scattered clouds
169,Cabildo,AR,-38.4842,-61.8954,59.0,44,79,13.94,broken clouds
170,Esperance,AU,-33.8667,121.9,54.34,66,40,14.32,scattered clouds
171,Santa Lucia,ES,27.9117,-15.5407,67.32,73,75,24.16,broken clouds
172,Pokaran,IN,26.9167,71.9167,90.37,39,1,6.64,clear sky
173,Port Lincoln,AU,-34.7333,135.8667,52.56,91,78,16.69,broken clouds
174,Bathsheba,BB,13.2167,-59.5167,83.01,78,20,8.05,few clouds
175,Chuy,UY,-33.6971,-53.4616,58.15,93,11,6.17,few clouds
176,Mount Isa,AU,-20.7333,139.5,71.37,64,75,3.44,broken clouds
177,Dingle,PH,10.9995,122.6711,75.85,93,61,4.56,broken clouds
178,Witbank,ZA,-25.8713,29.2332,53.53,70,0,11.39,clear sky
179,Daitari,IN,21.1,85.75,75.06,91,95,3.36,overcast clouds
180,Qaanaaq,GL,77.484,-69.3632,33.49,83,80,1.39,broken clouds
181,Samarai,PG,-10.6167,150.6667,80.58,80,22,9.13,few clouds
182,Nanortalik,GL,60.1432,-45.2371,43.93,92,26,4.09,scattered clouds
183,Nokaneng,BW,-19.6667,22.2667,69.93,32,0,9.44,clear sky
184,Russell,US,32.3502,-85.1999,87.4,62,0,3.44,clear sky
185,Isangel,VU,-19.55,169.2667,82.51,78,40,4.61,scattered clouds
186,Port Hedland,AU,-20.3167,118.5667,57.25,82,5,5.75,clear sky
187,Fukue,JP,32.6881,128.8419,76.48,68,92,22.03,overcast clouds
188,Vostok,RU,46.4856,135.8833,51.6,87,10,6.78,clear sky
189,Havre-Saint-Pierre,CA,50.2334,-63.5986,59.36,88,0,9.22,clear sky
190,Longyearbyen,SJ,78.2186,15.6401,40.84,93,75,3.44,broken clouds
191,Cockburn Town,TC,21.4612,-71.1419,83.46,73,6,11.68,clear sky
192,Clarence Town,AU,-32.5833,151.7833,61.95,80,88,3.91,overcast clouds
193,Hailar,CN,49.2,119.7,52.3,86,40,8.3,scattered clouds
194,Livingston,GB,55.9029,-3.5226,58.59,97,20,6.91,few clouds
195,Faya,SA,18.3851,42.4509,71.71,30,64,7.25,broken clouds
196,Camacha,PT,33.0833,-16.3333,69.22,83,20,8.05,few clouds
197,Nizhniy Tsasuchey,RU,50.5167,115.1333,51.01,75,60,6.44,broken clouds
198,Kodiak,US,57.79,-152.4072,54.91,82,100,13.8,light rain
199,Uncia,BO,-18.467,-66.5685,57.07,5,0,10.27,clear sky
200,Sorland,NO,67.667,12.6934,49.86,71,51,10.04,broken clouds
201,Tezu,IN,27.9167,96.1667,77.09,72,99,3.02,overcast clouds
202,Sitka,US,57.0531,-135.33,62.49,63,75,10.36,broken clouds
203,Koulikoro,ML,14.0,-7.75,74.75,66,97,7.29,overcast clouds
204,Kasempa,ZM,-13.4584,25.8338,64.53,34,0,6.49,clear sky
205,Tapes,BR,-30.6733,-51.3958,65.66,78,96,4.23,overcast clouds
206,Marsaxlokk,MT,35.8419,14.5431,81.09,83,20,3.44,few clouds
207,Nisia Floresta,BR,-6.0911,-35.2086,77.38,76,0,14.97,clear sky
208,Taoudenni,ML,22.6783,-3.9836,99.46,13,15,9.42,few clouds
209,Szczytno,PL,53.5626,20.9875,48.13,71,0,4.61,clear sky
210,Sur,OM,22.5667,59.5289,79.48,70,0,11.74,clear sky
211,Tasiilaq,GL,65.6145,-37.6368,41.16,99,100,2.37,light rain
212,Banda Aceh,ID,5.5577,95.3222,78.94,78,100,13.02,overcast clouds
213,Kirakira,SB,-10.4544,161.9205,81.32,80,81,9.93,broken clouds
214,Arraial Do Cabo,BR,-22.9661,-42.0278,68.92,75,52,28.83,broken clouds
215,Shaki,AZ,41.0833,47.1667,60.49,95,72,3.33,light rain
216,Cherskiy,RU,68.75,161.3,54.39,42,60,13.96,broken clouds
217,Vao,NC,-22.6667,167.4833,69.26,71,14,14.58,few clouds
218,Mishelevka,RU,52.8575,103.1719,52.29,86,79,5.77,broken clouds
219,Conde,BR,-7.2597,-34.9075,72.86,78,0,9.22,clear sky
220,Lavra,PT,41.2594,-8.7185,70.12,89,20,6.91,few clouds
221,Tual,ID,-5.6667,132.75,80.38,81,25,11.16,scattered clouds
222,Qaqortoq,GL,60.7167,-46.0333,43.65,91,28,2.89,scattered clouds
223,Beipiao,CN,41.7919,120.7792,58.8,60,0,3.53,clear sky
224,Calabozo,VE,8.9242,-67.4293,79.41,85,49,4.65,scattered clouds
225,Ponta Do Sol,PT,32.6667,-17.1,74.03,79,7,1.59,clear sky
226,Constitucion,CL,-35.3333,-72.4167,48.45,82,92,5.35,overcast clouds
227,Henties Bay,NA,-22.116,14.2845,56.91,83,0,6.11,clear sky
228,Tilichiki,RU,60.4667,166.1,49.66,66,71,6.22,broken clouds
229,Husavik,IS,66.0449,-17.3389,51.35,86,56,4.45,broken clouds
230,Xiaoweizhai,CN,26.1903,107.5125,68.07,68,57,2.26,broken clouds
231,Shaunavon,CA,49.6501,-108.4181,96.58,10,0,27.54,clear sky
232,Killybegs,IE,54.6333,-8.45,57.76,89,99,12.8,overcast clouds
233,Muros,ES,42.7762,-9.0603,66.09,88,93,3.87,overcast clouds
234,Filimonovo,RU,56.2011,95.4611,61.41,64,97,8.68,overcast clouds
235,Gainesville,US,29.6516,-82.3248,91.24,58,0,5.75,clear sky
236,Morondava,MG,-20.2833,44.2833,71.26,67,0,11.36,clear sky
237,Alcantara,BR,-2.4089,-44.4147,82.6,83,39,9.66,scattered clouds
238,Kurduvadi,IN,18.0833,75.4333,77.45,82,100,5.23,overcast clouds
239,Faanui,PF,-16.4833,-151.75,78.22,74,9,21.18,clear sky
240,Saskylakh,RU,71.9167,114.0833,36.73,84,98,7.27,overcast clouds
241,Carnarvon,AU,-24.8667,113.6333,62.17,49,98,10.96,overcast clouds
242,Tommot,RU,58.9564,126.2925,41.83,86,95,12.84,overcast clouds
243,Monrovia,LR,6.3005,-10.7969,75.92,87,100,9.04,light rain
244,Guozhen,CN,34.3659,107.359,68.47,85,100,0.81,overcast clouds
245,Victoria,HK,22.2855,114.1577,83.32,83,99,5.99,overcast clouds
246,Touros,BR,-5.1989,-35.4608,75.38,78,0,17.65,clear sky
247,Roebourne,AU,-20.7833,117.1333,64.94,57,2,5.99,clear sky
248,Marawi,PH,7.9986,124.2928,68.88,93,99,1.59,overcast clouds
249,La Ronge,CA,55.1001,-105.2842,70.05,43,75,8.05,broken clouds
250,Mirador,BR,-6.3708,-44.3631,83.03,29,43,4.25,scattered clouds
251,Ribas Do Rio Pardo,BR,-20.4431,-53.7592,83.71,23,29,1.74,scattered clouds
252,Los Llanos De Aridane,ES,28.6585,-17.9182,71.35,93,0,14.97,clear sky
253,Kubuta,SZ,-26.8833,31.4833,56.66,88,0,3.4,clear sky
254,Linxia,CN,35.6003,103.2064,53.56,70,85,5.91,overcast clouds
255,Fairbanks,US,64.8378,-147.7164,54.61,85,75,1.01,broken clouds
256,Pisco,PE,-13.7,-76.2167,62.65,77,100,10.36,overcast clouds
257,Canon City,US,38.441,-105.2424,98.76,11,0,19.57,clear sky
258,Clyde River,CA,70.4692,-68.5914,35.83,100,100,14.97,overcast clouds
259,Gat,IL,31.61,34.7642,77.81,100,0,4.32,clear sky
260,Sukhumi,GE,43.0033,41.0153,63.77,61,62,5.23,broken clouds
261,Vila Franca Do Campo,PT,37.7167,-25.4333,73.81,93,70,8.3,broken clouds
262,Zhigansk,RU,66.7697,123.3711,43.39,80,96,5.3,overcast clouds
263,Chokurdakh,RU,70.6333,147.9167,53.02,54,100,10.45,overcast clouds
264,Marienburg,PL,54.0359,19.0266,55.89,64,96,8.21,overcast clouds
265,Aksarka,RU,66.5606,67.7975,30.16,88,54,6.33,broken clouds
266,Santa Cruz De Tenerife,ES,28.4682,-16.2546,75.92,87,40,18.41,scattered clouds
267,Diamantino,BR,-14.4086,-56.4461,90.1,24,11,3.91,few clouds
268,Bambous Virieux,MU,-20.3428,57.7575,70.05,78,75,6.91,broken clouds
269,Klaksvik,FO,62.2266,-6.589,58.12,97,57,18.16,light rain
270,Sibolga,ID,1.7427,98.7792,76.14,88,100,3.67,overcast clouds
271,Athabasca,CA,54.7169,-113.2854,61.21,79,100,5.3,overcast clouds
272,Souillac,MU,-20.5167,57.5167,70.18,78,75,6.91,broken clouds
273,San Juan,AR,-31.5375,-68.5364,80.64,4,0,30.42,clear sky
274,Saint Anthony,US,45.0205,-93.218,89.76,50,0,8.05,clear sky
275,Ambon,ID,-3.6954,128.1814,78.24,15,20,5.75,few clouds
276,Valparaiso,CL,-33.0393,-71.6273,55.99,96,100,9.22,overcast clouds
277,Comodoro Rivadavia,AR,-45.8667,-67.5,37.26,81,100,4.61,light rain
278,Kuusamo,FI,65.9667,29.1833,37.44,87,100,2.3,overcast clouds
279,Saint-Donat-De-Montcalm,CA,46.3187,-74.2219,67.86,66,0,3.04,clear sky
280,Emerald,AU,-23.5333,148.1667,60.94,100,75,5.75,light rain
281,Serafimovich,RU,49.5786,42.736,49.62,49,13,4.72,few clouds
282,Adrar,MR,20.5022,-10.0711,99.25,13,4,8.28,clear sky
283,Hofn,IS,64.2539,-15.2082,52.16,90,100,4.32,overcast clouds
284,Presidente Medici,BR,-11.1753,-61.9014,92.61,26,8,3.44,clear sky
285,Kalisz,PL,51.7611,18.091,59.02,46,100,10.13,overcast clouds
286,Iquitos,PE,-3.7481,-73.2472,84.24,79,40,2.3,scattered clouds
287,Saldanha,ZA,-33.0117,17.9442,51.85,89,0,16.49,clear sky
288,Khatanga,RU,71.9667,102.5,29.41,90,96,8.66,overcast clouds
289,Raudeberg,NO,61.9875,5.1352,54.27,67,53,8.86,broken clouds
290,Saint-Pierre,RE,-21.3393,55.4781,69.91,64,100,5.75,overcast clouds
291,Hukeri,IN,16.2333,74.6,71.58,95,100,4.97,heavy intensity rain
292,Dubbo,AU,-32.25,148.6167,57.33,72,75,12.66,broken clouds
293,Urucui,BR,-7.2294,-44.5561,84.52,29,65,6.31,broken clouds
294,Christchurch,NZ,-43.5333,172.6333,52.95,75,75,2.3,broken clouds
295,Soe,ID,-9.8607,124.284,61.14,74,68,3.42,broken clouds
296,Chicama,PE,-7.8447,-79.1469,61.34,69,68,10.04,broken clouds
297,Birao,CF,10.2849,22.7882,72.77,95,100,3.6,moderate rain
298,Saint-Felicien,CA,48.6501,-72.4491,73.9,64,20,2.3,few clouds
299,Diffa,NE,13.3154,12.6113,82.96,64,77,5.37,broken clouds
300,Romitan,UZ,39.9343,64.3814,69.75,37,0,11.5,clear sky
301,Castelo Do Piaui,BR,-5.3222,-41.5525,83.82,29,5,6.26,clear sky
302,Ensley,US,30.5188,-87.2728,82.29,79,20,1.99,few clouds
303,Culleredo,ES,43.2879,-8.3886,66.29,81,20,4.61,few clouds
304,Alice Springs,AU,-23.7,133.8833,57.22,26,0,5.75,clear sky
305,Sontra,DE,51.0667,9.9333,68.65,79,75,0.98,broken clouds
306,Lavrentiya,RU,65.5833,-171.0,43.68,88,100,8.21,light rain
307,Tuatapere,NZ,-46.1333,167.6833,44.69,81,55,3.69,broken clouds
308,Xiuyan,CN,40.2928,123.2744,58.75,89,0,0.67,clear sky
309,Timmins,CA,48.4669,-81.3331,75.02,43,40,4.61,scattered clouds
310,Itaituba,BR,-4.2761,-55.9836,87.4,43,86,3.04,overcast clouds
311,Salalah,OM,17.0151,54.0924,77.09,94,100,5.75,light intensity drizzle
312,Pahrump,US,36.2083,-115.9839,107.51,16,0,1.99,clear sky
313,Diu,IN,20.7141,70.9822,78.96,85,100,11.25,overcast clouds
314,Rubiataba,BR,-15.1644,-49.8033,84.78,23,53,3.96,broken clouds
315,Bandarbeyla,SO,9.4942,50.8122,76.93,75,6,26.75,clear sky
316,Dembi Dolo,ET,8.5333,34.8,56.26,95,97,2.73,light rain
317,Guider,CM,9.9342,13.9486,75.04,84,80,3.87,light rain
318,Mandalgovi,MN,45.7625,106.2708,60.33,33,4,5.99,clear sky
319,Kudahuvadhoo,MV,2.6708,72.8944,82.17,74,100,15.95,overcast clouds
320,Maragogi,BR,-9.0122,-35.2225,73.38,72,0,9.44,clear sky
321,Saryozek,KZ,44.3583,77.9753,66.81,23,0,2.37,clear sky
322,Popondetta,PG,-8.7537,148.2534,82.35,55,12,0.81,few clouds
323,Otacilio Costa,BR,-27.4831,-50.1219,56.26,99,93,3.31,overcast clouds
324,Traverse City,US,44.7631,-85.6206,79.84,50,0,8.05,clear sky
325,Khor,RU,47.8861,134.9464,55.27,81,0,11.56,clear sky
326,Tahoua,NE,14.8888,5.2692,82.09,65,84,10.76,broken clouds
327,Tessalit,ML,20.1986,1.0114,95.09,13,5,12.33,clear sky
328,Cedar City,US,37.6775,-113.0619,88.77,12,75,17.27,light rain
329,Awjilah,LY,29.1081,21.2869,78.1,39,0,14.05,clear sky
330,Aykhal,RU,66.0,111.5,31.64,92,22,8.48,few clouds
331,Gorontalo,ID,0.5412,123.0595,73.49,94,99,1.43,overcast clouds
332,Buraydah,SA,26.326,43.975,86.45,10,0,7.14,clear sky
333,Marzuq,YE,14.4,46.4667,82.06,53,28,3.31,scattered clouds
334,Huilong,CN,31.8111,121.655,77.94,76,100,6.67,overcast clouds
335,Buala,SB,-8.145,159.5921,82.29,75,49,10.6,light rain
336,Yar-Sale,RU,66.8333,70.8333,31.87,83,75,8.46,broken clouds
337,La Tuque,CA,47.4334,-72.7824,77.25,44,0,2.3,clear sky
338,Mahebourg,MU,-20.4081,57.7,70.09,78,75,6.91,broken clouds
339,Akdepe,TM,42.0551,59.3788,62.69,35,86,14.0,overcast clouds
340,Kosa,RU,59.9445,54.9977,43.3,95,100,3.18,overcast clouds
341,Palmer,US,42.1584,-72.3287,69.66,76,75,5.75,broken clouds
342,Baoning,CN,25.3378,110.026,73.26,100,75,0.0,mist
343,Sazava,CZ,49.8716,14.8967,67.01,85,99,4.52,overcast clouds
344,Alofi,NU,-19.0595,-169.9187,82.29,61,3,11.5,clear sky
345,Tonantins,BR,-2.8731,-67.8022,82.31,73,85,1.81,overcast clouds
346,Tombouctou,ML,20.0,-3.0,98.15,22,0,7.92,clear sky
347,Aswan,EG,24.0934,32.907,86.09,30,0,11.01,clear sky
348,Saint-Prosper,CA,46.2117,-70.4811,72.72,69,0,1.45,clear sky
349,Padang,ID,-0.9492,100.3543,76.69,76,100,4.81,overcast clouds
350,Charlestown,AU,-32.95,151.6667,61.83,83,92,1.99,overcast clouds
351,Polunochnoye,RU,60.8697,60.4153,41.65,95,99,4.41,overcast clouds
352,Santa Ana,US,33.7456,-117.8678,109.94,45,75,10.36,smoke
353,Tiksi,RU,71.6872,128.8694,41.79,84,97,6.73,overcast clouds
354,Ouargaye,BF,11.5033,0.0572,77.63,82,100,6.98,light rain
355,Porto Santo,PT,33.072,-16.3415,71.98,83,20,8.05,few clouds
356,Pedernales,DO,18.0384,-71.744,82.56,74,19,2.44,few clouds
357,Mezen,RU,65.8522,44.24,37.29,93,71,5.37,broken clouds
358,Canto Do Buriti,BR,-8.11,-42.9444,83.43,29,66,7.36,broken clouds
359,Nhulunbuy,AU,-12.2333,136.7667,74.01,94,40,0.0,scattered clouds
360,San,ML,13.3034,-4.8956,79.5,63,24,7.58,few clouds
361,Saint-Joseph,RE,-21.3667,55.6167,68.38,73,24,5.55,few clouds
362,Amga,RU,60.8953,131.9608,43.16,90,100,11.74,overcast clouds
363,Hamilton,US,39.1834,-84.5333,80.26,54,40,11.5,scattered clouds
364,Vestmannaeyjar,IS,63.4427,-20.2734,53.56,88,100,7.96,overcast clouds
365,Galiakot,IN,23.5167,74.0,82.35,72,88,2.73,overcast clouds
366,Bosaso,SO,11.2842,49.1816,91.89,45,1,15.57,clear sky
367,El Zapote,MX,21.0667,-102.8,73.99,63,93,7.34,overcast clouds
368,La Palma,US,33.8464,-118.0467,110.19,46,75,11.01,smoke
369,Rawson,AR,-43.3002,-65.1023,44.82,58,97,15.59,overcast clouds
370,Axim,GH,4.8699,-2.2405,74.43,92,1,6.6,clear sky
371,Praya,CV,14.9215,-23.5087,81.14,74,0,4.61,clear sky
372,Iranshahr,IR,27.2025,60.6848,86.13,41,0,1.48,clear sky
373,Rabo De Peixe,PT,37.8,-25.5833,72.91,94,40,12.66,scattered clouds
374,Antofagasta,CL,-23.65,-70.4,58.28,76,29,4.27,scattered clouds
375,Yuzhno-Kurilsk,RU,44.0306,145.8556,64.89,76,80,7.43,broken clouds
376,Tongren,CN,27.7172,109.1853,72.73,63,81,2.24,broken clouds
377,Xai-Xai,MZ,-25.0519,33.6442,63.18,85,1,6.29,clear sky
378,Lata,PT,40.1629,-8.3327,67.82,88,98,0.81,overcast clouds
379,Abashiri,JP,44.0213,144.2697,63.95,82,1,4.38,clear sky
380,Svetlyy,RU,54.675,20.1347,44.65,88,86,7.2,overcast clouds
381,Eyl,SO,7.9803,49.8164,77.09,72,51,20.04,broken clouds
382,Malente,DE,54.1712,10.5552,61.95,84,91,8.43,overcast clouds
383,Moerai,PF,-22.4333,-151.3333,72.43,75,2,19.42,clear sky
384,Phuket,TH,8.0,98.25,85.12,88,20,2.3,light rain
385,Angoche,MZ,-16.2325,39.9086,72.75,74,0,9.51,clear sky
386,Fare,PF,-16.7,-151.0167,78.08,74,3,20.98,clear sky
387,Ormara,PK,25.2088,64.6357,79.32,80,79,8.68,broken clouds
388,Ugoofaaru,MV,5.6667,73.0,80.83,81,100,16.44,overcast clouds
389,Vangaindrano,MG,-23.35,47.6,67.59,82,61,0.65,broken clouds
390,Linfen,CN,36.0889,111.5189,73.62,40,100,4.59,overcast clouds
391,Margate,GB,51.3813,1.3862,60.91,91,100,3.0,moderate rain
392,Mujiayingzi,CN,42.1167,118.7833,59.76,46,0,7.87,clear sky
393,Palm Harbor,US,28.0781,-82.7637,89.46,72,0,6.91,clear sky
394,Palauig,PH,15.435,119.9045,80.76,80,30,3.91,scattered clouds
395,Ambovombe,MG,-25.1667,46.0833,67.64,83,62,15.01,broken clouds
396,Grand-Santi,GF,4.25,-54.3833,75.45,92,41,3.56,scattered clouds
397,Hannibal,US,39.7084,-91.3585,85.15,24,0,9.4,clear sky
398,Baley,RU,51.6,116.6333,41.99,90,38,0.72,scattered clouds
399,Abu Samrah,SY,35.3029,37.1841,75.87,67,0,6.73,clear sky
400,Goderich,CA,43.7501,-81.7165,71.91,73,0,11.5,clear sky
401,Kruisfontein,ZA,-34.0033,24.7314,54.54,83,0,4.68,clear sky
402,Egvekinot,RU,66.3167,-179.1667,37.29,72,5,1.41,clear sky
403,Haines Junction,CA,60.7522,-137.5108,62.55,36,41,6.91,scattered clouds
404,Baton Rouge,US,30.4508,-91.1545,89.67,63,40,5.75,scattered clouds
405,Uray,RU,60.1247,64.7758,41.58,92,92,5.79,overcast clouds
406,Kaka,TM,37.3482,59.6143,77.49,30,0,5.26,clear sky
407,Rundu,NA,-17.9333,19.7667,66.81,21,0,7.02,clear sky
408,Xuddur,SO,4.1213,43.8894,70.81,70,44,19.8,scattered clouds
409,Ahipara,NZ,-35.1667,173.1667,54.46,69,99,3.0,overcast clouds
410,Antalaha,MG,-14.9003,50.2788,65.89,82,34,7.34,scattered clouds
411,Yuancheng,CN,36.652,107.7896,62.47,61,100,2.93,overcast clouds
412,Kharp,RU,66.8014,65.8081,32.34,93,73,4.99,broken clouds
413,Shache,CN,38.4167,77.2406,70.72,15,0,6.15,clear sky
414,Nobres,BR,-14.7203,-56.3275,93.94,20,23,5.12,few clouds
415,Seguela,CI,7.9611,-6.6731,70.21,96,64,4.25,light rain
416,Pouembout,NC,-21.1333,164.9,73.02,69,49,3.69,scattered clouds
417,Eirunepe,BR,-6.6603,-69.8736,90.32,39,52,3.24,broken clouds
418,Brae,GB,60.3964,-1.353,56.37,93,100,16.98,overcast clouds
419,Hambantota,LK,6.1241,81.1185,78.33,82,100,18.63,overcast clouds
420,Srednyaya Akhtuba,RU,48.7089,44.8667,44.26,41,5,4.21,clear sky
421,Yumen,CN,40.2833,97.2,66.72,14,0,3.8,clear sky
422,Road Town,VG,18.4167,-64.6167,84.29,70,20,8.05,few clouds
423,Sobolevo,RU,54.4299,31.8996,42.69,95,100,6.35,overcast clouds
424,Diego De Almagro,CL,-26.3667,-70.05,64.22,27,57,6.87,broken clouds
425,Stolin,BY,51.8912,26.846,44.33,60,1,1.7,clear sky
426,Bara,NG,10.3744,10.7288,73.76,88,76,6.11,broken clouds
427,Naze,JP,28.3667,129.4833,76.12,75,96,9.95,overcast clouds
428,Premnitz,DE,52.5333,12.3333,62.01,96,96,5.95,overcast clouds
429,High Rock,BS,26.6208,-78.2833,87.82,66,11,5.73,few clouds
430,Acapulco,MX,16.8634,-99.8901,85.82,74,75,11.5,broken clouds
431,Beringovskiy,RU,63.05,179.3167,44.28,65,6,6.69,clear sky
432,Mandiana,GN,10.6333,-8.6833,73.53,92,99,2.66,light rain
433,Goba,ET,7.0167,39.9833,51.53,91,83,2.62,broken clouds
434,Pangobilian,PH,8.8011,117.8594,78.69,80,64,1.63,broken clouds
435,Deputatskiy,RU,69.3,139.9,38.68,89,100,7.09,light rain
436,Makakilo City,US,21.3469,-158.0858,86.32,50,75,13.8,broken clouds
437,Barra Do Garcas,BR,-15.89,-52.2567,86.45,22,16,5.97,few clouds
438,The Valley,AI,18.217,-63.0578,86.09,79,40,5.75,scattered clouds
439,Requena,ES,39.4883,-1.1004,75.79,26,94,6.96,overcast clouds
440,Aklavik,CA,68.2191,-135.0107,46.0,59,100,3.85,overcast clouds
441,Mikkeli,FI,61.6886,27.2723,36.14,100,0,1.14,clear sky
442,Carora,VE,10.1755,-70.0827,89.85,43,82,3.33,broken clouds
443,Tevaitoa,PF,-16.7833,-151.5,78.17,74,11,21.97,few clouds
444,Pochutla,MX,15.7432,-96.4661,84.02,73,91,4.41,overcast clouds
445,Turukhansk,RU,65.8167,87.9833,39.11,81,100,13.53,overcast clouds
446,Ekhabi,RU,53.5102,142.9671,53.83,73,100,21.41,overcast clouds
447,Hami,CN,42.8,93.45,76.95,13,4,8.05,clear sky
448,Sazonovo,RU,59.0919,35.2268,38.26,98,53,5.32,broken clouds
449,Berekum,GH,7.4534,-2.584,70.14,92,38,3.85,scattered clouds
450,Mareeba,AU,-17.0,145.4333,71.47,88,72,5.44,broken clouds
451,Port Blair,IN,11.6667,92.75,75.24,94,100,1.14,moderate rain
452,Mozarlandia,BR,-14.7447,-50.5706,88.83,20,4,3.15,clear sky
453,Longyan,CN,25.1072,117.0225,69.53,93,59,2.71,broken clouds
454,Qui Nhon,VN,13.7667,109.2333,76.23,91,100,4.76,overcast clouds
455,Manitouwadge,CA,49.1215,-85.8403,74.3,33,0,5.95,clear sky
456,Menongue,AO,-14.6585,17.691,67.53,19,0,8.52,clear sky
457,Uglich,RU,57.5275,38.3317,44.62,96,99,5.82,overcast clouds
458,Basco,PH,20.4487,121.9702,82.63,77,100,19.04,overcast clouds
459,Paamiut,GL,61.994,-49.6678,40.62,82,99,13.02,overcast clouds
460,Asfi,MA,32.2994,-9.2372,69.94,78,18,20.42,few clouds
461,Leningradskiy,RU,69.3833,178.4167,43.05,55,4,8.21,clear sky
462,Astoria,US,46.1879,-123.8313,71.6,68,0,17.27,clear sky
463,Tiznit,MA,29.5833,-9.5,73.44,54,0,1.14,clear sky
464,Grindavik,IS,63.8424,-22.4338,52.27,93,75,2.3,broken clouds
465,Saint-Augustin,CA,51.226,-58.6502,56.37,67,89,5.14,overcast clouds
466,North Platte,US,41.1239,-100.7654,96.69,20,0,9.22,clear sky
467,Bakel,SN,14.905,-12.4568,87.24,67,73,12.44,broken clouds
468,Mansehra,PK,34.3333,73.2,68.65,82,0,4.16,clear sky
469,Lakhdenpokhya,RU,61.5198,30.1992,39.56,90,20,7.34,few clouds
470,Sadiqabad,PK,28.3062,70.1307,87.21,49,0,7.65,clear sky
471,Kisangani,CD,0.5167,25.2,73.2,88,98,2.53,overcast clouds
472,Gamba,GA,-2.65,10.0,73.33,89,100,8.88,light rain
473,Bonavista,CA,48.6499,-53.1147,56.05,66,100,16.89,overcast clouds
474,Nadvoitsy,RU,63.8667,34.3167,40.15,91,98,8.55,overcast clouds
475,Southwick,US,42.0548,-72.7704,70.56,82,100,5.75,overcast clouds
476,Noumea,NC,-22.2763,166.4572,73.99,99,5,8.7,clear sky
477,Namalenga,TZ,-10.95,39.1,65.35,72,14,3.0,few clouds
478,Rio Cuarto,AR,-33.1307,-64.3499,79.34,11,0,25.32,smoke
479,Sistranda,NO,63.7256,8.834,49.96,70,27,3.69,scattered clouds
480,Sakakah,SA,29.9697,40.2064,83.77,25,0,10.07,clear sky
481,Fuerte Olimpo,PY,-21.0415,-57.8738,88.75,24,2,3.98,clear sky
482,Atocha,BO,-20.9333,-66.2333,53.17,8,1,21.77,clear sky
483,Loukhi,RU,66.0764,33.0381,41.58,76,100,3.62,overcast clouds
484,West Wendover,US,40.7391,-114.0733,96.01,11,0,9.22,clear sky
485,Riyadh,SA,24.6877,46.7219,95.14,15,0,9.17,clear sky
486,Teya,RU,60.3778,92.6267,53.13,96,80,11.43,broken clouds
487,Rantepao,ID,-2.9701,119.8978,65.39,96,94,2.33,overcast clouds
488,Yabrud,SY,33.9674,36.6574,66.09,63,0,1.45,clear sky
489,Anito,PH,12.4497,125.2886,79.93,86,97,2.59,overcast clouds
490,Ternovka,RU,51.678,41.6375,47.52,51,100,8.46,overcast clouds
491,Luanda,AO,-8.8368,13.2343,73.4,83,75,3.44,broken clouds
492,Byron Bay,AU,-28.65,153.6167,57.94,69,19,1.48,few clouds
493,Seymchan,RU,62.8833,152.4333,53.47,72,81,10.09,broken clouds
494,Krivosheino,RU,57.3431,83.9261,46.87,69,100,21.63,overcast clouds
495,Laguna,US,38.421,-121.4238,110.08,14,0,10.36,clear sky
496,Berlevag,NO,70.8578,29.0864,48.2,81,100,13.8,light intensity drizzle
497,Khatra,IN,22.9833,86.85,78.98,90,100,2.93,overcast clouds
498,Taksimo,RU,56.3444,114.8794,37.47,85,5,1.36,clear sky
499,Tanete,ID,-3.9443,119.7848,73.45,95,99,3.56,overcast clouds
500,Yulara,AU,-25.2406,130.9889,51.78,51,0,7.09,clear sky
501,Labuhan,ID,-6.8844,112.2051,76.82,88,60,7.45,broken clouds
502,Changji,CN,44.0167,87.3167,79.59,18,0,11.18,clear sky
503,Vanavara,RU,60.34,102.2797,41.97,96,100,8.28,light rain
504,Eidfjord,NO,60.4675,7.0719,55.45,72,8,6.31,clear sky
505,Mangaratiba,BR,-22.9597,-44.0406,68.86,76,0,2.3,clear sky
506,Havoysund,NO,70.9963,24.6622,48.43,88,100,22.7,overcast clouds
507,Kalat,PK,29.0225,66.5916,68.11,64,2,1.5,clear sky
508,Avera,US,33.194,-82.5271,87.85,45,100,5.97,overcast clouds
509,Plouzane,FR,48.3833,-4.6167,61.12,94,100,14.97,overcast clouds
510,Bubaque,GW,11.2833,-15.8333,80.74,82,100,6.24,moderate rain
511,Hvolsvollur,IS,63.7533,-20.2243,52.9,76,96,1.7,overcast clouds
512,George,ZA,-33.963,22.4617,45.95,93,0,3.44,clear sky
513,Ust-Tsilma,RU,65.441,52.1498,32.92,91,83,3.91,broken clouds
514,Umm Kaddadah,SD,13.6017,26.6876,79.39,63,100,17.49,light rain
515,Lidkoping,SE,58.5052,13.1577,57.22,75,99,10.92,overcast clouds
516,Ozernovskiy,RU,51.5,156.5167,56.66,91,100,18.23,overcast clouds
517,Yining,CN,29.0361,114.5636,73.81,63,100,2.28,overcast clouds
518,Knokke-Heist,BE,51.3333,3.3333,66.22,79,100,1.01,overcast clouds
519,Kayes,ML,14.0,-11.0,73.24,78,98,5.99,moderate rain
520,Florida,US,28.7505,-82.5001,87.78,73,0,5.75,clear sky
521,Alamogordo,US,32.8995,-105.9603,90.95,28,0,8.05,clear sky
522,Kurumkan,RU,54.3,110.3,44.92,80,54,1.68,broken clouds
523,Asau,RO,46.4333,26.4,51.28,91,14,4.81,few clouds
524,Camargo,MX,27.6667,-105.1667,84.45,32,96,9.28,overcast clouds
525,Rio Grande,BR,-32.035,-52.0986,63.95,85,79,6.87,broken clouds
526,Topeka,US,39.0483,-95.678,87.8,48,0,3.44,clear sky
527,Danville,US,36.586,-79.395,83.05,73,0,4.61,clear sky
528,Healdsburg,US,38.6105,-122.8692,109.31,21,20,8.05,few clouds
529,Wilmington,US,34.2257,-77.9447,80.85,84,40,8.01,scattered clouds
530,Poum,NC,-20.2333,164.0167,71.67,78,60,9.06,broken clouds
531,Verkhnetulomskiy,RU,68.6073,31.7962,41.13,72,100,4.68,overcast clouds
532,Port Macquarie,AU,-31.4333,152.9167,59.9,78,51,7.09,broken clouds
533,Camopi,GF,3.1655,-52.3158,76.71,82,68,3.58,broken clouds
534,Erzin,TR,36.9559,36.2,73.26,70,0,2.06,clear sky
535,Bowen,AU,-20.0167,148.2333,71.1,69,10,11.95,clear sky
536,Molochnoye,RU,59.2917,39.6787,41.68,93,100,9.75,overcast clouds
537,Tura,IN,25.5198,90.2201,75.61,88,100,3.27,overcast clouds
538,Srandakan,ID,-7.9386,110.2506,74.89,92,97,5.82,overcast clouds
539,Kihei,US,20.785,-156.4656,89.62,68,20,25.32,few clouds
540,Hasaki,JP,35.7333,140.8333,73.8,85,66,15.9,broken clouds
541,Lagos,NG,6.5833,3.75,79.12,90,91,4.97,overcast clouds
542,Asyut,EG,27.181,31.1837,82.81,43,0,9.78,clear sky
543,Sibenik,HR,43.7272,15.9058,72.37,69,7,5.93,clear sky
544,Roald,NO,62.5833,6.1333,55.76,93,25,5.75,scattered clouds
545,Westport,US,41.1415,-73.3579,72.95,67,100,12.66,overcast clouds
546,Arbagar,RU,51.9438,116.2805,44.65,86,30,1.01,scattered clouds
547,Boyolangu,ID,-8.1181,111.8935,73.71,95,72,2.33,broken clouds
548,Paita,PE,-5.0892,-81.1144,65.03,77,23,19.1,few clouds
549,Vuktyl,RU,63.8567,57.3094,33.44,90,84,6.51,broken clouds
550,Coquimbo,CL,-29.9533,-71.3436,53.33,76,75,8.05,broken clouds
551,Haapiti,PF,-17.5667,-149.8667,82.13,73,22,21.23,light rain
552,Thayetmyo,MM,19.3167,95.1833,75.36,98,89,1.3,overcast clouds
553,Monforte De Lemos,ES,42.5216,-7.5142,61.57,95,75,2.75,broken clouds
554,Sal Rei,CV,16.1833,-22.9167,79.2,80,19,16.35,few clouds
555,Chikwawa,MW,-16.0335,34.8009,71.31,56,36,6.06,scattered clouds
556,Chivacoa,VE,10.1603,-68.895,82.71,66,87,6.06,overcast clouds
557,La Paz,BO,-16.5,-68.15,62.58,20,20,9.22,few clouds
558,Orapa,BW,-21.2833,25.3667,57.9,78,0,13.15,clear sky
559,Silver City,US,32.7701,-108.2803,85.96,26,0,9.22,clear sky
560,Sioux Lookout,CA,50.1001,-91.917,75.27,38,20,9.22,few clouds
561,Oksfjord,NO,70.2396,22.3479,48.38,85,100,5.06,overcast clouds
562,Sao Felix Do Xingu,BR,-6.6447,-51.995,86.65,34,68,1.81,broken clouds
563,Pangnirtung,CA,66.1451,-65.7125,51.8,58,100,19.57,overcast clouds
564,Taltal,CL,-25.4,-70.4833,57.16,73,56,4.27,broken clouds
565,Kologriv,RU,58.8275,44.3178,43.47,97,100,4.47,overcast clouds
566,Jalingo,NG,8.8833,11.3667,74.23,92,92,3.6,overcast clouds
567,Salmas,IR,38.1973,44.7653,58.84,69,0,2.53,clear sky
568,Korla,CN,41.7597,86.1469,76.57,19,0,5.14,clear sky
569,Morros,BR,-9.4467,-46.3003,82.15,25,28,5.77,scattered clouds
570,Staunton,US,38.1496,-79.0717,70.18,74,100,6.91,overcast clouds
571,Voh,NC,-20.9667,164.7,73.85,69,48,4.12,scattered clouds
572,Puerto Suarez,BO,-18.95,-57.8,90.16,23,0,3.87,clear sky
573,Rosetown,CA,51.5501,-108.0014,93.65,14,31,17.83,scattered clouds
574,Hervey Bay,AU,-25.2986,152.8535,65.93,64,15,9.91,few clouds
575,Orocue,CO,4.7912,-71.3354,80.73,71,95,6.04,overcast clouds
576,Mackay,AU,-21.15,149.2,71.69,74,1,8.57,clear sky
577,Gladstone,AU,-23.85,151.25,64.33,77,40,6.91,scattered clouds
578,Pershotravneve,UA,51.3929,28.8684,45.7,57,0,4.74,clear sky
579,Ilhabela,BR,-23.7781,-45.3581,66.42,84,5,6.31,clear sky
580,Daud Khel,PK,32.875,71.5701,89.46,49,1,5.68,clear sky
581,Ndola,ZM,-12.9587,28.6366,64.08,43,0,10.04,clear sky
582,Lashio,MM,22.9333,97.75,65.14,86,89,1.63,overcast clouds
583,Vila Do Maio,CV,15.1333,-23.2167,81.39,87,32,19.48,scattered clouds
584,Sao Joao Da Barra,BR,-21.6403,-41.0511,71.69,72,88,20.0,overcast clouds
585,Dali,CN,25.7,100.1833,58.42,79,87,2.28,overcast clouds
586,Missoula,US,47.0166,-113.8009,83.84,21,97,19.8,overcast clouds
587,Asosa,ET,10.0667,34.5333,60.91,96,100,3.18,light rain
588,Leh,IN,34.1667,77.5833,52.0,78,98,0.83,overcast clouds
589,Sudova Vyshnya,UA,49.7889,23.3722,50.83,68,68,7.2,broken clouds
590,Takoradi,GH,4.8845,-1.7554,74.5,92,4,6.91,clear sky
591,Mahon,ES,39.8885,4.2658,79.36,89,20,8.05,few clouds
592,Benghazi,LY,32.1167,20.0667,78.39,58,0,16.2,clear sky
593,Necochea,AR,-38.5473,-58.7368,62.13,61,88,10.45,overcast clouds
594,Casablanca,MA,33.5928,-7.6192,71.82,78,29,5.99,scattered clouds
595,Tabuk,PH,17.4189,121.4443,74.43,95,52,2.01,broken clouds
596,Moron,AR,-34.6534,-58.6198,71.49,55,1,8.21,clear sky
597,Zarubino,RU,42.63,131.0922,61.92,77,0,8.19,clear sky
598,Kamenka,RU,51.3223,42.7678,45.68,53,100,7.99,overcast clouds
599,Valley City,US,46.9233,-98.0032,86.52,58,0,16.11,clear sky
600,San Carlos,VE,9.6612,-68.5827,79.75,83,90,3.22,overcast clouds
601,Waddan,LY,29.1614,16.139,78.64,49,0,13.85,clear sky
602,Jalu,LY,29.0331,21.5482,77.86,39,1,14.07,clear sky
603,Whitehorse,CA,60.7161,-135.0538,64.09,44,40,5.75,scattered clouds
604,Bogatyye Saby,RU,56.0102,50.4483,44.96,91,100,7.45,overcast clouds
605,Dakar,SN,14.6937,-17.4441,82.53,89,40,0.0,scattered clouds
606,Zavidovici,BA,44.4458,18.1497,61.12,92,93,3.58,light rain
607,Sola,VU,-13.8833,167.55,81.07,72,31,13.98,scattered clouds
608,Griffith,US,41.5284,-87.4237,80.53,61,0,8.05,clear sky
609,Aksu,CN,41.1231,80.2644,72.63,20,0,2.68,clear sky
610,Golden,US,39.7555,-105.2211,98.96,15,20,8.01,few clouds
611,Enshi,CN,30.3,109.4833,67.75,60,100,0.92,overcast clouds
612,Tiarei,PF,-17.5333,-149.3333,82.42,77,9,23.17,light rain
613,Chota,PE,-6.55,-78.65,64.45,58,77,6.53,broken clouds
614,Hadgaon,IN,19.5,77.6667,76.24,88,100,3.27,overcast clouds
615,Poronaysk,RU,49.2167,143.1167,63.16,66,5,21.59,clear sky
616,Guanica,PR,17.9716,-66.908,87.12,83,77,5.28,broken clouds
617,Karaman,TR,37.0833,33.25,54.63,42,0,7.74,clear sky
618,Cangzhou,CN,38.3167,116.8667,64.44,56,11,6.08,few clouds
619,Wanning,CN,18.8003,110.3967,79.14,89,100,5.03,heavy intensity rain
620,Surazh,RU,53.0175,32.3918,49.03,60,100,5.5,overcast clouds
621,Mayor Pablo Lagerenza,PY,-19.9309,-60.7718,94.86,15,0,12.06,clear sky
622,Tromso,NO,69.6496,18.957,46.42,81,75,3.44,broken clouds
623,Jabinyanah,TN,35.035,10.9081,84.0,73,52,10.45,broken clouds
624,Pishin,PK,30.5803,66.9961,74.71,54,0,1.43,clear sky
625,Faridpur,BD,23.6,89.8333,82.29,82,100,6.24,overcast clouds
626,Mildura,AU,-34.2,142.15,56.07,95,100,17.6,light rain
627,Tikapur,NP,28.5,81.1333,78.64,71,0,3.0,clear sky
628,Ondjiva,AO,-17.0667,15.7333,69.35,14,0,6.08,clear sky
629,Kendari,ID,-3.945,122.4989,73.96,94,66,1.92,broken clouds
630,Kolosovka,RU,56.4678,73.611,42.91,91,97,15.1,overcast clouds
631,Cabo San Lucas,MX,22.8909,-109.9124,81.05,87,100,28.77,overcast clouds
632,Warrington,GB,53.3925,-2.5802,60.33,93,20,11.5,few clouds
633,Ossora,RU,59.2353,163.0719,53.2,90,100,9.89,overcast clouds
634,Koszalin,PL,54.1944,16.1722,63.68,53,94,12.64,overcast clouds
635,Araouane,ML,18.9048,-3.5265,85.28,42,98,19.8,overcast clouds
636,Ancud,CL,-41.8697,-73.8203,43.23,85,98,10.0,overcast clouds
637,Namibe,AO,-15.1961,12.1522,65.98,89,54,3.13,broken clouds
638,Kudymkar,RU,59.0173,54.656,44.11,92,100,3.02,overcast clouds
639,Ocos,GT,14.5094,-92.1933,86.18,71,15,8.05,few clouds
640,Ruteng,ID,-8.6136,120.4721,59.41,91,25,1.72,scattered clouds
641,Kasongo-Lunda,CD,-6.4667,16.8167,76.39,76,51,2.46,broken clouds
642,Zhanaozen,KZ,43.3,52.8,62.24,41,100,11.77,overcast clouds
643,Kuah,MY,6.3265,99.8432,76.98,94,40,1.14,light rain
644,Curuca,BR,-0.7289,-47.8481,75.83,89,93,6.38,overcast clouds
645,Tabas,IR,33.5959,56.9244,82.62,12,0,4.61,clear sky
646,Montepuez,MZ,-13.1256,38.9997,69.82,55,82,7.16,broken clouds
647,Rutana,BI,-3.8667,30.1,61.27,79,100,2.77,light rain
648,Salamiyah,SY,35.0113,37.0532,73.33,78,0,6.15,clear sky
649,Gazanjyk,TM,39.2446,55.5154,76.62,34,98,8.66,overcast clouds
650,Santiago,CL,-33.4569,-70.6483,58.44,52,75,8.05,broken clouds
651,Kotelnikovo,RU,47.6317,43.1461,54.36,42,0,4.12,clear sky
652,Umm Lajj,SA,25.0213,37.2685,85.46,52,0,9.06,clear sky
653,Soderhamn,SE,61.3037,17.0592,48.96,73,100,4.72,overcast clouds
654,Kelapa Sawit,MY,1.6698,103.5327,78.67,94,20,0.0,few clouds
655,Jiexiu,CN,37.0244,111.9125,65.55,41,99,1.32,overcast clouds
656,Muyezerskiy,RU,63.9333,31.65,34.92,95,68,4.94,broken clouds
657,Fereydun Kenar,IR,36.6864,52.5225,76.89,79,100,13.09,overcast clouds
658,Sangar,RU,63.9242,127.4739,42.55,83,100,15.03,overcast clouds
659,Redlands,US,34.0556,-117.1825,108.36,26,40,6.91,scattered clouds
660,Zhezkazgan,KZ,47.8043,67.7144,55.31,33,80,2.08,broken clouds
661,Yongchang,CN,30.0381,119.7317,69.58,81,71,1.23,broken clouds
662,Anori,BR,-3.7728,-61.6442,86.63,48,54,2.37,broken clouds
663,Itupiranga,BR,-5.1347,-49.3267,82.72,36,66,1.68,broken clouds
664,Khash,IR,28.2211,61.2158,73.96,18,0,0.43,clear sky
665,Mukhtolovo,RU,55.4644,43.1953,45.57,80,100,3.47,light rain
666,Druzhba,UA,52.0428,33.9453,47.52,55,100,9.19,overcast clouds
667,Brewster,US,41.3973,-73.6171,71.92,77,100,8.05,overcast clouds
668,Shingu,JP,33.7333,135.9833,77.11,88,98,5.99,overcast clouds
669,Ayan,RU,56.45,138.1667,49.46,72,87,27.04,overcast clouds
670,Port-Cartier,CA,50.0334,-66.8654,61.02,72,11,3.38,few clouds
671,Kibala,TD,9.1104,18.3463,76.59,85,100,3.02,overcast clouds
672,Freeport,US,40.6576,-73.5832,73.38,70,100,12.66,overcast clouds
673,Merke,KZ,42.8728,73.1786,70.32,33,0,6.04,clear sky
674,Dongsheng,CN,39.8161,109.9776,60.85,39,12,7.63,few clouds
675,Robertsport,LR,6.7533,-11.3686,76.93,85,100,12.12,light rain
676,Vyselki,RU,45.5794,39.6597,53.19,40,0,5.57,clear sky
677,Horsham,GB,51.064,-0.3272,61.02,93,0,2.3,clear sky
678,Chaohu,CN,31.6,117.8667,73.13,85,100,4.97,overcast clouds
679,Timra,SE,62.487,17.3257,52.68,93,100,3.44,overcast clouds
680,Maine-Soroa,NE,13.2114,12.0241,82.94,62,84,1.99,light rain
681,Lokoja,NG,7.8024,6.743,73.65,96,100,2.57,light rain
682,Zinder,NE,13.8072,8.9881,78.76,67,93,5.03,overcast clouds
683,Vila,PT,42.0304,-8.1588,54.48,93,99,4.0,overcast clouds
684,Ouadda,CF,8.0777,22.4007,68.95,95,99,3.33,light rain
685,Masyaf,SY,35.0653,36.3406,70.23,86,7,5.01,clear sky
686,Salinas,US,36.6777,-121.6555,107.56,41,0,12.66,clear sky
687,Pontianak,ID,-0.0333,109.3333,75.18,100,75,2.3,broken clouds
688,Lhokseumawe,ID,5.1801,97.1507,77.63,80,100,1.52,overcast clouds
689,Saint-Georges,GD,12.0564,-61.7485,80.28,78,40,9.22,scattered clouds
690,Puerto Cabello,VE,10.4731,-68.0125,83.75,65,73,8.7,broken clouds
691,Rocha,UY,-34.4833,-54.3333,60.98,85,0,5.73,clear sky
692,Baker City,US,44.7749,-117.8344,89.31,22,0,8.05,clear sky
693,Anadyr,RU,64.75,177.4833,46.9,61,0,6.71,clear sky
694,Nuuk,GL,64.1835,-51.7216,43.41,93,75,1.14,broken clouds
695,Ndungu,TZ,-4.3667,38.05,66.81,73,6,2.84,clear sky
696,Bereda,ES,43.2686,-7.5406,61.41,100,87,4.41,overcast clouds
